$GPGGA,215055.367,5231.029,N,01323.400,E,1,12,1.0,0.0,M,0.0,M,,*63
$GPGSA,A,3,01,02,03,04,05,06,07,08,09,10,11,12,1.0,1.0,1.0*30
$GPRMC,215055.367,A,5231.029,N,01323.400,E,038.9,086.0,140418,000.0,W*73
$GPGGA,215056.367,5231.030,N,01323.417,E,1,12,1.0,0.0,M,0.0,M,,*6E
$GPGSA,A,3,01,02,03,04,05,06,07,08,09,10,11,12,1.0,1.0,1.0*30
$GPRMC,215056.367,A,5231.030,N,01323.417,E,038.9,086.0,140418,000.0,W*7E
$GPGGA,215057.367,5231.031,N,01323.435,E,1,12,1.0,0.0,M,0.0,M,,*6E
$GPGSA,A,3,01,02,03,04,05,06,07,08,09,10,11,12,1.0,1.0,1.0*30
$GPRMC,215057.367,A,5231.031,N,01323.435,E,038.9,086.0,140418,000.0,W*7E
$GPGGA,215058.367,5231.033,N,01323.453,E,1,12,1.0,0.0,M,0.0,M,,*63
$GPGSA,A,3,01,02,03,04,05,06,07,08,09,10,11,12,1.0,1.0,1.0*30
$GPRMC,215058.367,A,5231.033,N,01323.453,E,038.9,086.0,140418,000.0,W*73
$GPGGA,215059.367,5231.034,N,01323.470,E,1,12,1.0,0.0,M,0.0,M,,*64
$GPGSA,A,3,01,02,03,04,05,06,07,08,09,10,11,12,1.0,1.0,1.0*30
$GPRMC,215059.367,A,5231.034,N,01323.470,E,038.9,086.0,140418,000.0,W*74
$GPGGA,215100.367,5231.035,N,01323.488,E,1,12,1.0,0.0,M,0.0,M,,*6F
$GPGSA,A,3,01,02,03,04,05,06,07,08,09,10,11,12,1.0,1.0,1.0*30
$GPRMC,215100.367,A,5231.035,N,01323.488,E,038.9,086.0,140418,000.0,W*7F
$GPGGA,215101.367,5231.036,N,01323.505,E,1,12,1.0,0.0,M,0.0,M,,*69
$GPGSA,A,3,01,02,03,04,05,06,07,08,09,10,11,12,1.0,1.0,1.0*30
$GPRMC,215101.367,A,5231.036,N,01323.505,E,038.9,086.0,140418,000.0,W*79
$GPGGA,215102.367,5231.037,N,01323.523,E,1,12,1.0,0.0,M,0.0,M,,*6F
$GPGSA,A,3,01,02,03,04,05,06,07,08,09,10,11,12,1.0,1.0,1.0*30
$GPRMC,215102.367,A,5231.037,N,01323.523,E,038.9,086.0,140418,000.0,W*7F
$GPGGA,215103.367,5231.039,N,01323.541,E,1,12,1.0,0.0,M,0.0,M,,*64
$GPGSA,A,3,01,02,03,04,05,06,07,08,09,10,11,12,1.0,1.0,1.0*30
$GPRMC,215103.367,A,5231.039,N,01323.541,E,038.9,086.0,140418,000.0,W*74
$GPGGA,215104.367,5231.040,N,01323.558,E,1,12,1.0,0.0,M,0.0,M,,*65
$GPGSA,A,3,01,02,03,04,05,06,07,08,09,10,11,12,1.0,1.0,1.0*30
$GPRMC,215104.367,A,5231.040,N,01323.558,E,038.9,086.0,140418,000.0,W*75
$GPGGA,215105.367,5231.041,N,01323.576,E,1,12,1.0,0.0,M,0.0,M,,*69
$GPGSA,A,3,01,02,03,04,05,06,07,08,09,10,11,12,1.0,1.0,1.0*30
$GPRMC,215105.367,A,5231.041,N,01323.576,E,038.9,086.0,140418,000.0,W*79
$GPGGA,215106.367,5231.042,N,01323.594,E,1,12,1.0,0.0,M,0.0,M,,*65
$GPGSA,A,3,01,02,03,04,05,06,07,08,09,10,11,12,1.0,1.0,1.0*30
$GPRMC,215106.367,A,5231.042,N,01323.594,E,038.9,086.0,140418,000.0,W*75
$GPGGA,215107.367,5231.044,N,01323.611,E,1,12,1.0,0.0,M,0.0,M,,*6C
$GPGSA,A,3,01,02,03,04,05,06,07,08,09,10,11,12,1.0,1.0,1.0*30
$GPRMC,215107.367,A,5231.044,N,01323.611,E,038.9,086.0,140418,000.0,W*7C
$GPGGA,215108.367,5231.045,N,01323.629,E,1,12,1.0,0.0,M,0.0,M,,*69
$GPGSA,A,3,01,02,03,04,05,06,07,08,09,10,11,12,1.0,1.0,1.0*30
$GPRMC,215108.367,A,5231.045,N,01323.629,E,038.9,086.0,140418,000.0,W*79
$GPGGA,215109.367,5231.046,N,01323.646,E,1,12,1.0,0.0,M,0.0,M,,*62
$GPGSA,A,3,01,02,03,04,05,06,07,08,09,10,11,12,1.0,1.0,1.0*30
$GPRMC,215109.367,A,5231.046,N,01323.646,E,038.9,086.0,140418,000.0,W*72
$GPGGA,215110.367,5231.047,N,01323.664,E,1,12,1.0,0.0,M,0.0,M,,*6B
$GPGSA,A,3,01,02,03,04,05,06,07,08,09,10,11,12,1.0,1.0,1.0*30
$GPRMC,215110.367,A,5231.047,N,01323.664,E,038.9,086.0,140418,000.0,W*7B
$GPGGA,215111.367,5231.048,N,01323.682,E,1,12,1.0,0.0,M,0.0,M,,*6D
$GPGSA,A,3,01,02,03,04,05,06,07,08,09,10,11,12,1.0,1.0,1.0*30
$GPRMC,215111.367,A,5231.048,N,01323.682,E,038.9,086.0,140418,000.0,W*7D
$GPGGA,215112.367,5231.050,N,01323.699,E,1,12,1.0,0.0,M,0.0,M,,*6D
$GPGSA,A,3,01,02,03,04,05,06,07,08,09,10,11,12,1.0,1.0,1.0*30
$GPRMC,215112.367,A,5231.050,N,01323.699,E,038.9,086.0,140418,000.0,W*7D
$GPGGA,215113.367,5231.051,N,01323.717,E,1,12,1.0,0.0,M,0.0,M,,*6A
$GPGSA,A,3,01,02,03,04,05,06,07,08,09,10,11,12,1.0,1.0,1.0*30
$GPRMC,215113.367,A,5231.051,N,01323.717,E,038.9,086.0,140418,000.0,W*7A
$GPGGA,215114.367,5231.052,N,01323.734,E,1,12,1.0,0.0,M,0.0,M,,*6F
$GPGSA,A,3,01,02,03,04,05,06,07,08,09,10,11,12,1.0,1.0,1.0*30
$GPRMC,215114.367,A,5231.052,N,01323.734,E,038.9,086.0,140418,000.0,W*7F
$GPGGA,215115.367,5231.053,N,01323.752,E,1,12,1.0,0.0,M,0.0,M,,*6F
$GPGSA,A,3,01,02,03,04,05,06,07,08,09,10,11,12,1.0,1.0,1.0*30
$GPRMC,215115.367,A,5231.053,N,01323.752,E,038.9,086.0,140418,000.0,W*7F
$GPGGA,215116.367,5231.055,N,01323.770,E,1,12,1.0,0.0,M,0.0,M,,*6A
$GPGSA,A,3,01,02,03,04,05,06,07,08,09,10,11,12,1.0,1.0,1.0*30
$GPRMC,215116.367,A,5231.055,N,01323.770,E,038.9,086.0,140418,000.0,W*7A
$GPGGA,215117.367,5231.056,N,01323.787,E,1,12,1.0,0.0,M,0.0,M,,*60
$GPGSA,A,3,01,02,03,04,05,06,07,08,09,10,11,12,1.0,1.0,1.0*30
$GPRMC,215117.367,A,5231.056,N,01323.787,E,038.9,086.0,140418,000.0,W*70
$GPGGA,215118.367,5231.057,N,01323.805,E,1,12,1.0,0.0,M,0.0,M,,*6B
$GPGSA,A,3,01,02,03,04,05,06,07,08,09,10,11,12,1.0,1.0,1.0*30
$GPRMC,215118.367,A,5231.057,N,01323.805,E,038.9,086.0,140418,000.0,W*7B
$GPGGA,215119.367,5231.058,N,01323.823,E,1,12,1.0,0.0,M,0.0,M,,*61
$GPGSA,A,3,01,02,03,04,05,06,07,08,09,10,11,12,1.0,1.0,1.0*30
$GPRMC,215119.367,A,5231.058,N,01323.823,E,038.9,086.0,140418,000.0,W*71
$GPGGA,215120.367,5231.059,N,01323.840,E,1,12,1.0,0.0,M,0.0,M,,*6F
$GPGSA,A,3,01,02,03,04,05,06,07,08,09,10,11,12,1.0,1.0,1.0*30
$GPRMC,215120.367,A,5231.059,N,01323.840,E,038.9,086.0,140418,000.0,W*7F
$GPGGA,215121.367,5231.061,N,01323.858,E,1,12,1.0,0.0,M,0.0,M,,*6C
$GPGSA,A,3,01,02,03,04,05,06,07,08,09,10,11,12,1.0,1.0,1.0*30
$GPRMC,215121.367,A,5231.061,N,01323.858,E,038.9,086.0,140418,000.0,W*7C
$GPGGA,215122.367,5231.062,N,01323.875,E,1,12,1.0,0.0,M,0.0,M,,*63
$GPGSA,A,3,01,02,03,04,05,06,07,08,09,10,11,12,1.0,1.0,1.0*30
$GPRMC,215122.367,A,5231.062,N,01323.875,E,038.9,086.0,140418,000.0,W*73
$GPGGA,215123.367,5231.063,N,01323.893,E,1,12,1.0,0.0,M,0.0,M,,*6B
$GPGSA,A,3,01,02,03,04,05,06,07,08,09,10,11,12,1.0,1.0,1.0*30
$GPRMC,215123.367,A,5231.063,N,01323.893,E,038.9,086.0,140418,000.0,W*7B
$GPGGA,215124.367,5231.064,N,01323.911,E,1,12,1.0,0.0,M,0.0,M,,*60
$GPGSA,A,3,01,02,03,04,05,06,07,08,09,10,11,12,1.0,1.0,1.0*30
$GPRMC,215124.367,A,5231.064,N,01323.911,E,038.9,086.0,140418,000.0,W*70
$GPGGA,215125.367,5231.066,N,01323.928,E,1,12,1.0,0.0,M,0.0,M,,*69
$GPGSA,A,3,01,02,03,04,05,06,07,08,09,10,11,12,1.0,1.0,1.0*30
$GPRMC,215125.367,A,5231.066,N,01323.928,E,038.9,086.0,140418,000.0,W*79
$GPGGA,215126.367,5231.067,N,01323.946,E,1,12,1.0,0.0,M,0.0,M,,*63
$GPGSA,A,3,01,02,03,04,05,06,07,08,09,10,11,12,1.0,1.0,1.0*30
$GPRMC,215126.367,A,5231.067,N,01323.946,E,038.9,086.0,140418,000.0,W*73
$GPGGA,215127.367,5231.068,N,01323.964,E,1,12,1.0,0.0,M,0.0,M,,*6D
$GPGSA,A,3,01,02,03,04,05,06,07,08,09,10,11,12,1.0,1.0,1.0*30
$GPRMC,215127.367,A,5231.068,N,01323.964,E,038.9,162.2,140418,000.0,W*74
$GPGGA,215128.367,5231.057,N,01323.967,E,1,12,1.0,0.0,M,0.0,M,,*6D
$GPGSA,A,3,01,02,03,04,05,06,07,08,09,10,11,12,1.0,1.0,1.0*30
$GPRMC,215128.367,A,5231.057,N,01323.967,E,038.9,162.2,140418,000.0,W*74
$GPGGA,215129.367,5231.047,N,01323.970,E,1,12,1.0,0.0,M,0.0,M,,*6B
$GPGSA,A,3,01,02,03,04,05,06,07,08,09,10,11,12,1.0,1.0,1.0*30
$GPRMC,215129.367,A,5231.047,N,01323.970,E,038.9,162.2,140418,000.0,W*72
$GPGGA,215130.367,5231.036,N,01323.974,E,1,12,1.0,0.0,M,0.0,M,,*61
$GPGSA,A,3,01,02,03,04,05,06,07,08,09,10,11,12,1.0,1.0,1.0*30
$GPRMC,215130.367,A,5231.036,N,01323.974,E,038.9,162.2,140418,000.0,W*78
$GPGGA,215131.367,5231.026,N,01323.977,E,1,12,1.0,0.0,M,0.0,M,,*62
$GPGSA,A,3,01,02,03,04,05,06,07,08,09,10,11,12,1.0,1.0,1.0*30
$GPRMC,215131.367,A,5231.026,N,01323.977,E,038.9,162.2,140418,000.0,W*7B
$GPGGA,215132.367,5231.015,N,01323.981,E,1,12,1.0,0.0,M,0.0,M,,*68
$GPGSA,A,3,01,02,03,04,05,06,07,08,09,10,11,12,1.0,1.0,1.0*30
$GPRMC,215132.367,A,5231.015,N,01323.981,E,038.9,162.2,140418,000.0,W*71
$GPGGA,215133.367,5231.004,N,01323.984,E,1,12,1.0,0.0,M,0.0,M,,*6C
$GPGSA,A,3,01,02,03,04,05,06,07,08,09,10,11,12,1.0,1.0,1.0*30
$GPRMC,215133.367,A,5231.004,N,01323.984,E,038.9,162.2,140418,000.0,W*75
$GPGGA,215134.367,5230.994,N,01323.987,E,1,12,1.0,0.0,M,0.0,M,,*69
$GPGSA,A,3,01,02,03,04,05,06,07,08,09,10,11,12,1.0,1.0,1.0*30
$GPRMC,215134.367,A,5230.994,N,01323.987,E,038.9,162.2,140418,000.0,W*70
$GPGGA,215135.367,5230.983,N,01323.991,E,1,12,1.0,0.0,M,0.0,M,,*69
$GPGSA,A,3,01,02,03,04,05,06,07,08,09,10,11,12,1.0,1.0,1.0*30
$GPRMC,215135.367,A,5230.983,N,01323.991,E,038.9,162.2,140418,000.0,W*70
$GPGGA,215136.367,5230.973,N,01323.994,E,1,12,1.0,0.0,M,0.0,M,,*60
$GPGSA,A,3,01,02,03,04,05,06,07,08,09,10,11,12,1.0,1.0,1.0*30
$GPRMC,215136.367,A,5230.973,N,01323.994,E,038.9,162.2,140418,000.0,W*79
$GPGGA,215137.367,5230.962,N,01323.998,E,1,12,1.0,0.0,M,0.0,M,,*6D
$GPGSA,A,3,01,02,03,04,05,06,07,08,09,10,11,12,1.0,1.0,1.0*30
$GPRMC,215137.367,A,5230.962,N,01323.998,E,038.9,162.2,140418,000.0,W*74
$GPGGA,215138.367,5230.952,N,01324.001,E,1,12,1.0,0.0,M,0.0,M,,*6F
$GPGSA,A,3,01,02,03,04,05,06,07,08,09,10,11,12,1.0,1.0,1.0*30
$GPRMC,215138.367,A,5230.952,N,01324.001,E,038.9,162.2,140418,000.0,W*76
$GPGGA,215139.367,5230.941,N,01324.004,E,1,12,1.0,0.0,M,0.0,M,,*69
$GPGSA,A,3,01,02,03,04,05,06,07,08,09,10,11,12,1.0,1.0,1.0*30
$GPRMC,215139.367,A,5230.941,N,01324.004,E,038.9,162.2,140418,000.0,W*70
$GPGGA,215140.367,5230.930,N,01324.008,E,1,12,1.0,0.0,M,0.0,M,,*6D
$GPGSA,A,3,01,02,03,04,05,06,07,08,09,10,11,12,1.0,1.0,1.0*30
$GPRMC,215140.367,A,5230.930,N,01324.008,E,038.9,162.2,140418,000.0,W*74
$GPGGA,215141.367,5230.920,N,01324.011,E,1,12,1.0,0.0,M,0.0,M,,*65
$GPGSA,A,3,01,02,03,04,05,06,07,08,09,10,11,12,1.0,1.0,1.0*30
$GPRMC,215141.367,A,5230.920,N,01324.011,E,038.9,162.2,140418,000.0,W*7C
$GPGGA,215142.367,5230.909,N,01324.015,E,1,12,1.0,0.0,M,0.0,M,,*69
$GPGSA,A,3,01,02,03,04,05,06,07,08,09,10,11,12,1.0,1.0,1.0*30
$GPRMC,215142.367,A,5230.909,N,01324.015,E,038.9,162.2,140418,000.0,W*70
$GPGGA,215143.367,5230.899,N,01324.018,E,1,12,1.0,0.0,M,0.0,M,,*6D
$GPGSA,A,3,01,02,03,04,05,06,07,08,09,10,11,12,1.0,1.0,1.0*30
$GPRMC,215143.367,A,5230.899,N,01324.018,E,038.9,162.2,140418,000.0,W*74
$GPGGA,215144.367,5230.888,N,01324.021,E,1,12,1.0,0.0,M,0.0,M,,*60
$GPGSA,A,3,01,02,03,04,05,06,07,08,09,10,11,12,1.0,1.0,1.0*30
$GPRMC,215144.367,A,5230.888,N,01324.021,E,038.9,162.2,140418,000.0,W*79
$GPGGA,215145.367,5230.877,N,01324.025,E,1,12,1.0,0.0,M,0.0,M,,*65
$GPGSA,A,3,01,02,03,04,05,06,07,08,09,10,11,12,1.0,1.0,1.0*30
$GPRMC,215145.367,A,5230.877,N,01324.025,E,038.9,162.2,140418,000.0,W*7C
$GPGGA,215146.367,5230.867,N,01324.028,E,1,12,1.0,0.0,M,0.0,M,,*6A
$GPGSA,A,3,01,02,03,04,05,06,07,08,09,10,11,12,1.0,1.0,1.0*30
$GPRMC,215146.367,A,5230.867,N,01324.028,E,038.9,162.2,140418,000.0,W*73
$GPGGA,215147.367,5230.856,N,01324.032,E,1,12,1.0,0.0,M,0.0,M,,*62
$GPGSA,A,3,01,02,03,04,05,06,07,08,09,10,11,12,1.0,1.0,1.0*30
$GPRMC,215147.367,A,5230.856,N,01324.032,E,038.9,162.2,140418,000.0,W*7B
$GPGGA,215148.367,5230.846,N,01324.035,E,1,12,1.0,0.0,M,0.0,M,,*6B
$GPGSA,A,3,01,02,03,04,05,06,07,08,09,10,11,12,1.0,1.0,1.0*30
$GPRMC,215148.367,A,5230.846,N,01324.035,E,038.9,162.2,140418,000.0,W*72
$GPGGA,215149.367,5230.835,N,01324.038,E,1,12,1.0,0.0,M,0.0,M,,*63
$GPGSA,A,3,01,02,03,04,05,06,07,08,09,10,11,12,1.0,1.0,1.0*30
$GPRMC,215149.367,A,5230.835,N,01324.038,E,038.9,162.2,140418,000.0,W*7A
$GPGGA,215150.367,5230.824,N,01324.042,E,1,12,1.0,0.0,M,0.0,M,,*66
$GPGSA,A,3,01,02,03,04,05,06,07,08,09,10,11,12,1.0,1.0,1.0*30
$GPRMC,215150.367,A,5230.824,N,01324.042,E,038.9,162.2,140418,000.0,W*7F
$GPGGA,215151.367,5230.814,N,01324.045,E,1,12,1.0,0.0,M,0.0,M,,*63
$GPGSA,A,3,01,02,03,04,05,06,07,08,09,10,11,12,1.0,1.0,1.0*30
$GPRMC,215151.367,A,5230.814,N,01324.045,E,038.9,162.2,140418,000.0,W*7A
$GPGGA,215152.367,5230.803,N,01324.049,E,1,12,1.0,0.0,M,0.0,M,,*6A
$GPGSA,A,3,01,02,03,04,05,06,07,08,09,10,11,12,1.0,1.0,1.0*30
$GPRMC,215152.367,A,5230.803,N,01324.049,E,038.9,162.2,140418,000.0,W*73
$GPGGA,215153.367,5230.793,N,01324.052,E,1,12,1.0,0.0,M,0.0,M,,*67
$GPGSA,A,3,01,02,03,04,05,06,07,08,09,10,11,12,1.0,1.0,1.0*30
$GPRMC,215153.367,A,5230.793,N,01324.052,E,038.9,264.8,140418,000.0,W*71
$GPGGA,215154.367,5230.791,N,01324.035,E,1,12,1.0,0.0,M,0.0,M,,*63
$GPGSA,A,3,01,02,03,04,05,06,07,08,09,10,11,12,1.0,1.0,1.0*30
$GPRMC,215154.367,A,5230.791,N,01324.035,E,038.9,264.8,140418,000.0,W*75
$GPGGA,215155.367,5230.790,N,01324.017,E,1,12,1.0,0.0,M,0.0,M,,*63
$GPGSA,A,3,01,02,03,04,05,06,07,08,09,10,11,12,1.0,1.0,1.0*30
$GPRMC,215155.367,A,5230.790,N,01324.017,E,038.9,264.8,140418,000.0,W*75
$GPGGA,215156.367,5230.788,N,01323.999,E,1,12,1.0,0.0,M,0.0,M,,*61
$GPGSA,A,3,01,02,03,04,05,06,07,08,09,10,11,12,1.0,1.0,1.0*30
$GPRMC,215156.367,A,5230.788,N,01323.999,E,038.9,264.8,140418,000.0,W*77
$GPGGA,215157.367,5230.786,N,01323.982,E,1,12,1.0,0.0,M,0.0,M,,*64
$GPGSA,A,3,01,02,03,04,05,06,07,08,09,10,11,12,1.0,1.0,1.0*30
$GPRMC,215157.367,A,5230.786,N,01323.982,E,038.9,264.8,140418,000.0,W*72
$GPGGA,215158.367,5230.785,N,01323.964,E,1,12,1.0,0.0,M,0.0,M,,*60
$GPGSA,A,3,01,02,03,04,05,06,07,08,09,10,11,12,1.0,1.0,1.0*30
$GPRMC,215158.367,A,5230.785,N,01323.964,E,038.9,264.8,140418,000.0,W*76
$GPGGA,215159.367,5230.783,N,01323.947,E,1,12,1.0,0.0,M,0.0,M,,*66
$GPGSA,A,3,01,02,03,04,05,06,07,08,09,10,11,12,1.0,1.0,1.0*30
$GPRMC,215159.367,A,5230.783,N,01323.947,E,038.9,264.8,140418,000.0,W*70
$GPGGA,215200.367,5230.782,N,01323.929,E,1,12,1.0,0.0,M,0.0,M,,*60
$GPGSA,A,3,01,02,03,04,05,06,07,08,09,10,11,12,1.0,1.0,1.0*30
$GPRMC,215200.367,A,5230.782,N,01323.929,E,038.9,264.8,140418,000.0,W*76
$GPGGA,215201.367,5230.780,N,01323.912,E,1,12,1.0,0.0,M,0.0,M,,*6B
$GPGSA,A,3,01,02,03,04,05,06,07,08,09,10,11,12,1.0,1.0,1.0*30
$GPRMC,215201.367,A,5230.780,N,01323.912,E,038.9,264.8,140418,000.0,W*7D
$GPGGA,215202.367,5230.778,N,01323.894,E,1,12,1.0,0.0,M,0.0,M,,*60
$GPGSA,A,3,01,02,03,04,05,06,07,08,09,10,11,12,1.0,1.0,1.0*30
$GPRMC,215202.367,A,5230.778,N,01323.894,E,038.9,264.8,140418,000.0,W*76
$GPGGA,215203.367,5230.777,N,01323.877,E,1,12,1.0,0.0,M,0.0,M,,*63
$GPGSA,A,3,01,02,03,04,05,06,07,08,09,10,11,12,1.0,1.0,1.0*30
$GPRMC,215203.367,A,5230.777,N,01323.877,E,038.9,264.8,140418,000.0,W*75
$GPGGA,215204.367,5230.775,N,01323.859,E,1,12,1.0,0.0,M,0.0,M,,*6A
$GPGSA,A,3,01,02,03,04,05,06,07,08,09,10,11,12,1.0,1.0,1.0*30
$GPRMC,215204.367,A,5230.775,N,01323.859,E,038.9,264.8,140418,000.0,W*7C
$GPGGA,215205.367,5230.774,N,01323.842,E,1,12,1.0,0.0,M,0.0,M,,*60
$GPGSA,A,3,01,02,03,04,05,06,07,08,09,10,11,12,1.0,1.0,1.0*30
$GPRMC,215205.367,A,5230.774,N,01323.842,E,038.9,264.8,140418,000.0,W*76
$GPGGA,215206.367,5230.772,N,01323.824,E,1,12,1.0,0.0,M,0.0,M,,*65
$GPGSA,A,3,01,02,03,04,05,06,07,08,09,10,11,12,1.0,1.0,1.0*30
$GPRMC,215206.367,A,5230.772,N,01323.824,E,038.9,264.8,140418,000.0,W*73
$GPGGA,215207.367,5230.770,N,01323.807,E,1,12,1.0,0.0,M,0.0,M,,*67
$GPGSA,A,3,01,02,03,04,05,06,07,08,09,10,11,12,1.0,1.0,1.0*30
$GPRMC,215207.367,A,5230.770,N,01323.807,E,038.9,264.8,140418,000.0,W*71
$GPGGA,215208.367,5230.769,N,01323.789,E,1,12,1.0,0.0,M,0.0,M,,*69
$GPGSA,A,3,01,02,03,04,05,06,07,08,09,10,11,12,1.0,1.0,1.0*30
$GPRMC,215208.367,A,5230.769,N,01323.789,E,038.9,264.8,140418,000.0,W*7F
$GPGGA,215209.367,5230.767,N,01323.771,E,1,12,1.0,0.0,M,0.0,M,,*61
$GPGSA,A,3,01,02,03,04,05,06,07,08,09,10,11,12,1.0,1.0,1.0*30
$GPRMC,215209.367,A,5230.767,N,01323.771,E,038.9,264.8,140418,000.0,W*77
$GPGGA,215210.367,5230.766,N,01323.754,E,1,12,1.0,0.0,M,0.0,M,,*6F
$GPGSA,A,3,01,02,03,04,05,06,07,08,09,10,11,12,1.0,1.0,1.0*30
$GPRMC,215210.367,A,5230.766,N,01323.754,E,038.9,264.8,140418,000.0,W*79
$GPGGA,215211.367,5230.764,N,01323.736,E,1,12,1.0,0.0,M,0.0,M,,*68
$GPGSA,A,3,01,02,03,04,05,06,07,08,09,10,11,12,1.0,1.0,1.0*30
$GPRMC,215211.367,A,5230.764,N,01323.736,E,038.9,264.8,140418,000.0,W*7E
$GPGGA,215212.367,5230.763,N,01323.719,E,1,12,1.0,0.0,M,0.0,M,,*61
$GPGSA,A,3,01,02,03,04,05,06,07,08,09,10,11,12,1.0,1.0,1.0*30
$GPRMC,215212.367,A,5230.763,N,01323.719,E,038.9,264.8,140418,000.0,W*77
$GPGGA,215213.367,5230.761,N,01323.701,E,1,12,1.0,0.0,M,0.0,M,,*6B
$GPGSA,A,3,01,02,03,04,05,06,07,08,09,10,11,12,1.0,1.0,1.0*30
$GPRMC,215213.367,A,5230.761,N,01323.701,E,038.9,264.8,140418,000.0,W*7D
$GPGGA,215214.367,5230.759,N,01323.684,E,1,12,1.0,0.0,M,0.0,M,,*6B
$GPGSA,A,3,01,02,03,04,05,06,07,08,09,10,11,12,1.0,1.0,1.0*30
$GPRMC,215214.367,A,5230.759,N,01323.684,E,038.9,264.8,140418,000.0,W*7D
$GPGGA,215215.367,5230.758,N,01323.666,E,1,12,1.0,0.0,M,0.0,M,,*67
$GPGSA,A,3,01,02,03,04,05,06,07,08,09,10,11,12,1.0,1.0,1.0*30
$GPRMC,215215.367,A,5230.758,N,01323.666,E,038.9,264.8,140418,000.0,W*71
$GPGGA,215216.367,5230.756,N,01323.649,E,1,12,1.0,0.0,M,0.0,M,,*67
$GPGSA,A,3,01,02,03,04,05,06,07,08,09,10,11,12,1.0,1.0,1.0*30
$GPRMC,215216.367,A,5230.756,N,01323.649,E,038.9,264.8,140418,000.0,W*71
$GPGGA,215217.367,5230.755,N,01323.631,E,1,12,1.0,0.0,M,0.0,M,,*6A
$GPGSA,A,3,01,02,03,04,05,06,07,08,09,10,11,12,1.0,1.0,1.0*30
$GPRMC,215217.367,A,5230.755,N,01323.631,E,038.9,264.8,140418,000.0,W*7C
$GPGGA,215218.367,5230.753,N,01323.614,E,1,12,1.0,0.0,M,0.0,M,,*64
$GPGSA,A,3,01,02,03,04,05,06,07,08,09,10,11,12,1.0,1.0,1.0*30
$GPRMC,215218.367,A,5230.753,N,01323.614,E,038.9,264.8,140418,000.0,W*72
$GPGGA,215219.367,5230.751,N,01323.596,E,1,12,1.0,0.0,M,0.0,M,,*6E
$GPGSA,A,3,01,02,03,04,05,06,07,08,09,10,11,12,1.0,1.0,1.0*30
$GPRMC,215219.367,A,5230.751,N,01323.596,E,038.9,264.8,140418,000.0,W*78
$GPGGA,215220.367,5230.750,N,01323.578,E,1,12,1.0,0.0,M,0.0,M,,*65
$GPGSA,A,3,01,02,03,04,05,06,07,08,09,10,11,12,1.0,1.0,1.0*30
$GPRMC,215220.367,A,5230.750,N,01323.578,E,038.9,264.8,140418,000.0,W*73
$GPGGA,215221.367,5230.748,N,01323.561,E,1,12,1.0,0.0,M,0.0,M,,*65
$GPGSA,A,3,01,02,03,04,05,06,07,08,09,10,11,12,1.0,1.0,1.0*30
$GPRMC,215221.367,A,5230.748,N,01323.561,E,038.9,264.8,140418,000.0,W*73
$GPGGA,215222.367,5230.747,N,01323.543,E,1,12,1.0,0.0,M,0.0,M,,*69
$GPGSA,A,3,01,02,03,04,05,06,07,08,09,10,11,12,1.0,1.0,1.0*30
$GPRMC,215222.367,A,5230.747,N,01323.543,E,038.9,264.8,140418,000.0,W*7F
$GPGGA,215223.367,5230.745,N,01323.526,E,1,12,1.0,0.0,M,0.0,M,,*69
$GPGSA,A,3,01,02,03,04,05,06,07,08,09,10,11,12,1.0,1.0,1.0*30
$GPRMC,215223.367,A,5230.745,N,01323.526,E,038.9,264.8,140418,000.0,W*7F
$GPGGA,215224.367,5230.744,N,01323.508,E,1,12,1.0,0.0,M,0.0,M,,*63
$GPGSA,A,3,01,02,03,04,05,06,07,08,09,10,11,12,1.0,1.0,1.0*30
$GPRMC,215224.367,A,5230.744,N,01323.508,E,038.9,264.8,140418,000.0,W*75
$GPGGA,215225.367,5230.742,N,01323.491,E,1,12,1.0,0.0,M,0.0,M,,*65
$GPGSA,A,3,01,02,03,04,05,06,07,08,09,10,11,12,1.0,1.0,1.0*30
$GPRMC,215225.367,A,5230.742,N,01323.491,E,038.9,171.2,140418,000.0,W*7E
$GPGGA,215226.367,5230.731,N,01323.492,E,1,12,1.0,0.0,M,0.0,M,,*61
$GPGSA,A,3,01,02,03,04,05,06,07,08,09,10,11,12,1.0,1.0,1.0*30
$GPRMC,215226.367,A,5230.731,N,01323.492,E,038.9,171.2,140418,000.0,W*7A
$GPGGA,215227.367,5230.720,N,01323.494,E,1,12,1.0,0.0,M,0.0,M,,*66
$GPGSA,A,3,01,02,03,04,05,06,07,08,09,10,11,12,1.0,1.0,1.0*30
$GPRMC,215227.367,A,5230.720,N,01323.494,E,038.9,171.2,140418,000.0,W*7D
$GPGGA,215228.367,5230.710,N,01323.496,E,1,12,1.0,0.0,M,0.0,M,,*68
$GPGSA,A,3,01,02,03,04,05,06,07,08,09,10,11,12,1.0,1.0,1.0*30
$GPRMC,215228.367,A,5230.710,N,01323.496,E,038.9,171.2,140418,000.0,W*73
$GPGGA,215229.367,5230.699,N,01323.498,E,1,12,1.0,0.0,M,0.0,M,,*67
$GPGSA,A,3,01,02,03,04,05,06,07,08,09,10,11,12,1.0,1.0,1.0*30
$GPRMC,215229.367,A,5230.699,N,01323.498,E,038.9,171.2,140418,000.0,W*7C
$GPGGA,215230.367,5230.688,N,01323.499,E,1,12,1.0,0.0,M,0.0,M,,*6E
$GPGSA,A,3,01,02,03,04,05,06,07,08,09,10,11,12,1.0,1.0,1.0*30
$GPRMC,215230.367,A,5230.688,N,01323.499,E,038.9,171.2,140418,000.0,W*75
$GPGGA,215231.367,5230.678,N,01323.501,E,1,12,1.0,0.0,M,0.0,M,,*60
$GPGSA,A,3,01,02,03,04,05,06,07,08,09,10,11,12,1.0,1.0,1.0*30
$GPRMC,215231.367,A,5230.678,N,01323.501,E,038.9,171.2,140418,000.0,W*7B
$GPGGA,215232.367,5230.667,N,01323.503,E,1,12,1.0,0.0,M,0.0,M,,*6F
$GPGSA,A,3,01,02,03,04,05,06,07,08,09,10,11,12,1.0,1.0,1.0*30
$GPRMC,215232.367,A,5230.667,N,01323.503,E,038.9,171.2,140418,000.0,W*74
$GPGGA,215233.367,5230.656,N,01323.504,E,1,12,1.0,0.0,M,0.0,M,,*6B
$GPGSA,A,3,01,02,03,04,05,06,07,08,09,10,11,12,1.0,1.0,1.0*30
$GPRMC,215233.367,A,5230.656,N,01323.504,E,038.9,171.2,140418,000.0,W*70
$GPGGA,215234.367,5230.645,N,01323.506,E,1,12,1.0,0.0,M,0.0,M,,*6C
$GPGSA,A,3,01,02,03,04,05,06,07,08,09,10,11,12,1.0,1.0,1.0*30
$GPRMC,215234.367,A,5230.645,N,01323.506,E,038.9,085.8,140418,000.0,W*77
$GPGGA,215235.367,5230.647,N,01323.524,E,1,12,1.0,0.0,M,0.0,M,,*6F
$GPGSA,A,3,01,02,03,04,05,06,07,08,09,10,11,12,1.0,1.0,1.0*30
$GPRMC,215235.367,A,5230.647,N,01323.524,E,038.9,085.8,140418,000.0,W*74
$GPGGA,215236.367,5230.648,N,01323.541,E,1,12,1.0,0.0,M,0.0,M,,*60
$GPGSA,A,3,01,02,03,04,05,06,07,08,09,10,11,12,1.0,1.0,1.0*30
$GPRMC,215236.367,A,5230.648,N,01323.541,E,038.9,085.8,140418,000.0,W*7B
$GPGGA,215237.367,5230.649,N,01323.559,E,1,12,1.0,0.0,M,0.0,M,,*69
$GPGSA,A,3,01,02,03,04,05,06,07,08,09,10,11,12,1.0,1.0,1.0*30
$GPRMC,215237.367,A,5230.649,N,01323.559,E,038.9,085.8,140418,000.0,W*72
$GPGGA,215238.367,5230.650,N,01323.576,E,1,12,1.0,0.0,M,0.0,M,,*63
$GPGSA,A,3,01,02,03,04,05,06,07,08,09,10,11,12,1.0,1.0,1.0*30
$GPRMC,215238.367,A,5230.650,N,01323.576,E,038.9,085.8,140418,000.0,W*78
$GPGGA,215239.367,5230.652,N,01323.594,E,1,12,1.0,0.0,M,0.0,M,,*6C
$GPGSA,A,3,01,02,03,04,05,06,07,08,09,10,11,12,1.0,1.0,1.0*30
$GPRMC,215239.367,A,5230.652,N,01323.594,E,038.9,085.8,140418,000.0,W*77
$GPGGA,215240.367,5230.653,N,01323.612,E,1,12,1.0,0.0,M,0.0,M,,*6E
$GPGSA,A,3,01,02,03,04,05,06,07,08,09,10,11,12,1.0,1.0,1.0*30
$GPRMC,215240.367,A,5230.653,N,01323.612,E,038.9,085.8,140418,000.0,W*75
$GPGGA,215241.367,5230.654,N,01323.629,E,1,12,1.0,0.0,M,0.0,M,,*60
$GPGSA,A,3,01,02,03,04,05,06,07,08,09,10,11,12,1.0,1.0,1.0*30
$GPRMC,215241.367,A,5230.654,N,01323.629,E,038.9,085.8,140418,000.0,W*7B
$GPGGA,215242.367,5230.656,N,01323.647,E,1,12,1.0,0.0,M,0.0,M,,*69
$GPGSA,A,3,01,02,03,04,05,06,07,08,09,10,11,12,1.0,1.0,1.0*30
$GPRMC,215242.367,A,5230.656,N,01323.647,E,038.9,085.8,140418,000.0,W*72
$GPGGA,215243.367,5230.657,N,01323.664,E,1,12,1.0,0.0,M,0.0,M,,*68
$GPGSA,A,3,01,02,03,04,05,06,07,08,09,10,11,12,1.0,1.0,1.0*30
$GPRMC,215243.367,A,5230.657,N,01323.664,E,038.9,085.8,140418,000.0,W*73
$GPGGA,215244.367,5230.658,N,01323.682,E,1,12,1.0,0.0,M,0.0,M,,*68
$GPGSA,A,3,01,02,03,04,05,06,07,08,09,10,11,12,1.0,1.0,1.0*30
$GPRMC,215244.367,A,5230.658,N,01323.682,E,038.9,085.8,140418,000.0,W*73
$GPGGA,215245.367,5230.660,N,01323.700,E,1,12,1.0,0.0,M,0.0,M,,*69
$GPGSA,A,3,01,02,03,04,05,06,07,08,09,10,11,12,1.0,1.0,1.0*30
$GPRMC,215245.367,A,5230.660,N,01323.700,E,038.9,085.8,140418,000.0,W*72
$GPGGA,215246.367,5230.661,N,01323.717,E,1,12,1.0,0.0,M,0.0,M,,*6D
$GPGSA,A,3,01,02,03,04,05,06,07,08,09,10,11,12,1.0,1.0,1.0*30
$GPRMC,215246.367,A,5230.661,N,01323.717,E,038.9,085.8,140418,000.0,W*76
$GPGGA,215247.367,5230.662,N,01323.735,E,1,12,1.0,0.0,M,0.0,M,,*6F
$GPGSA,A,3,01,02,03,04,05,06,07,08,09,10,11,12,1.0,1.0,1.0*30
$GPRMC,215247.367,A,5230.662,N,01323.735,E,038.9,085.8,140418,000.0,W*74
$GPGGA,215248.367,5230.663,N,01323.752,E,1,12,1.0,0.0,M,0.0,M,,*60
$GPGSA,A,3,01,02,03,04,05,06,07,08,09,10,11,12,1.0,1.0,1.0*30
$GPRMC,215248.367,A,5230.663,N,01323.752,E,038.9,085.8,140418,000.0,W*7B
$GPGGA,215249.367,5230.665,N,01323.770,E,1,12,1.0,0.0,M,0.0,M,,*67
$GPGSA,A,3,01,02,03,04,05,06,07,08,09,10,11,12,1.0,1.0,1.0*30
$GPRMC,215249.367,A,5230.665,N,01323.770,E,038.9,085.8,140418,000.0,W*7C
$GPGGA,215250.367,5230.666,N,01323.788,E,1,12,1.0,0.0,M,0.0,M,,*6B
$GPGSA,A,3,01,02,03,04,05,06,07,08,09,10,11,12,1.0,1.0,1.0*30
$GPRMC,215250.367,A,5230.666,N,01323.788,E,038.9,085.8,140418,000.0,W*70
$GPGGA,215251.367,5230.667,N,01323.805,E,1,12,1.0,0.0,M,0.0,M,,*61
$GPGSA,A,3,01,02,03,04,05,06,07,08,09,10,11,12,1.0,1.0,1.0*30
$GPRMC,215251.367,A,5230.667,N,01323.805,E,038.9,085.8,140418,000.0,W*7A
$GPGGA,215252.367,5230.669,N,01323.823,E,1,12,1.0,0.0,M,0.0,M,,*68
$GPGSA,A,3,01,02,03,04,05,06,07,08,09,10,11,12,1.0,1.0,1.0*30
$GPRMC,215252.367,A,5230.669,N,01323.823,E,038.9,085.8,140418,000.0,W*73
$GPGGA,215253.367,5230.670,N,01323.840,E,1,12,1.0,0.0,M,0.0,M,,*64
$GPGSA,A,3,01,02,03,04,05,06,07,08,09,10,11,12,1.0,1.0,1.0*30
$GPRMC,215253.367,A,5230.670,N,01323.840,E,038.9,085.8,140418,000.0,W*7F
$GPGGA,215254.367,5230.671,N,01323.858,E,1,12,1.0,0.0,M,0.0,M,,*6B
$GPGSA,A,3,01,02,03,04,05,06,07,08,09,10,11,12,1.0,1.0,1.0*30
$GPRMC,215254.367,A,5230.671,N,01323.858,E,038.9,085.8,140418,000.0,W*70
$GPGGA,215255.367,5230.672,N,01323.876,E,1,12,1.0,0.0,M,0.0,M,,*65
$GPGSA,A,3,01,02,03,04,05,06,07,08,09,10,11,12,1.0,1.0,1.0*30
$GPRMC,215255.367,A,5230.672,N,01323.876,E,038.9,085.8,140418,000.0,W*7E
$GPGGA,215256.367,5230.674,N,01323.893,E,1,12,1.0,0.0,M,0.0,M,,*6B
$GPGSA,A,3,01,02,03,04,05,06,07,08,09,10,11,12,1.0,1.0,1.0*30
$GPRMC,215256.367,A,5230.674,N,01323.893,E,038.9,085.8,140418,000.0,W*70
$GPGGA,215257.367,5230.675,N,01323.911,E,1,12,1.0,0.0,M,0.0,M,,*60
$GPGSA,A,3,01,02,03,04,05,06,07,08,09,10,11,12,1.0,1.0,1.0*30
$GPRMC,215257.367,A,5230.675,N,01323.911,E,038.9,085.8,140418,000.0,W*7B
$GPGGA,215258.367,5230.676,N,01323.928,E,1,12,1.0,0.0,M,0.0,M,,*66
$GPGSA,A,3,01,02,03,04,05,06,07,08,09,10,11,12,1.0,1.0,1.0*30
$GPRMC,215258.367,A,5230.676,N,01323.928,E,038.9,085.8,140418,000.0,W*7D
$GPGGA,215259.367,5230.678,N,01323.946,E,1,12,1.0,0.0,M,0.0,M,,*61
$GPGSA,A,3,01,02,03,04,05,06,07,08,09,10,11,12,1.0,1.0,1.0*30
$GPRMC,215259.367,A,5230.678,N,01323.946,E,038.9,085.8,140418,000.0,W*7A
$GPGGA,215300.367,5230.679,N,01323.964,E,1,12,1.0,0.0,M,0.0,M,,*6D
$GPGSA,A,3,01,02,03,04,05,06,07,08,09,10,11,12,1.0,1.0,1.0*30
$GPRMC,215300.367,A,5230.679,N,01323.964,E,038.9,085.8,140418,000.0,W*76
$GPGGA,215301.367,5230.680,N,01323.981,E,1,12,1.0,0.0,M,0.0,M,,*61
$GPGSA,A,3,01,02,03,04,05,06,07,08,09,10,11,12,1.0,1.0,1.0*30
$GPRMC,215301.367,A,5230.680,N,01323.981,E,038.9,085.8,140418,000.0,W*7A
$GPGGA,215302.367,5230.682,N,01323.999,E,1,12,1.0,0.0,M,0.0,M,,*69
$GPGSA,A,3,01,02,03,04,05,06,07,08,09,10,11,12,1.0,1.0,1.0*30
$GPRMC,215302.367,A,5230.682,N,01323.999,E,038.9,085.8,140418,000.0,W*72
$GPGGA,215303.367,5230.683,N,01324.016,E,1,12,1.0,0.0,M,0.0,M,,*60
$GPGSA,A,3,01,02,03,04,05,06,07,08,09,10,11,12,1.0,1.0,1.0*30
$GPRMC,215303.367,A,5230.683,N,01324.016,E,038.9,085.8,140418,000.0,W*7B
$GPGGA,215304.367,5230.684,N,01324.034,E,1,12,1.0,0.0,M,0.0,M,,*60
$GPGSA,A,3,01,02,03,04,05,06,07,08,09,10,11,12,1.0,1.0,1.0*30
$GPRMC,215304.367,A,5230.684,N,01324.034,E,038.9,085.8,140418,000.0,W*7B
$GPGGA,215305.367,5230.685,N,01324.052,E,1,12,1.0,0.0,M,0.0,M,,*60
$GPGSA,A,3,01,02,03,04,05,06,07,08,09,10,11,12,1.0,1.0,1.0*30
$GPRMC,215305.367,A,5230.685,N,01324.052,E,038.9,085.8,140418,000.0,W*7B
$GPGGA,215306.367,5230.687,N,01324.069,E,1,12,1.0,0.0,M,0.0,M,,*69
$GPGSA,A,3,01,02,03,04,05,06,07,08,09,10,11,12,1.0,1.0,1.0*30
$GPRMC,215306.367,A,5230.687,N,01324.069,E,038.9,085.8,140418,000.0,W*72
$GPGGA,215307.367,5230.688,N,01324.087,E,1,12,1.0,0.0,M,0.0,M,,*67
$GPGSA,A,3,01,02,03,04,05,06,07,08,09,10,11,12,1.0,1.0,1.0*30
$GPRMC,215307.367,A,5230.688,N,01324.087,E,038.9,085.8,140418,000.0,W*7C
